{"type": "FeatureCollection", "features": [{"type": "Feature", "properties": {"name": "Alkmaar"}, "geometry": {"type": "Point", "coordinates": [4.7533, 52.6326]}}, {"type": "Feature", "properties": {"name": "Bergen (NH.)"}, "geometry": {"type": "Point", "coordinates": [4.7078, 52.6883]}}, {"type": "Feature", "properties": {"name": "Castricum"}, "geometry": {"type": "Point", "coordinates": [4.6433, 52.5578]}}, {"type": "Feature", "properties": {"name": "Dijk en Waard"}, "geometry": {"type": "Point", "coordinates": [4.8458, 52.6822]}}, {"type": "Feature", "properties": {"name": "Heiloo"}, "geometry": {"type": "Point", "coordinates": [4.7108, 52.6267]}}, {"type": "Feature", "properties": {"name": "Uitgeest"}, "geometry": {"type": "Point", "coordinates": [4.7408, 52.5111]}}, {"type": "Feature", "properties": {"name": "Den Helder"}, "geometry": {"type": "Point", "coordinates": [4.7597, 52.9575]}}, {"type": "Feature", "properties": {"name": "Schagen"}, "geometry": {"type": "Point", "coordinates": [4.8397, 52.7844]}}, {"type": "Feature", "properties": {"name": "Texel"}, "geometry": {"type": "Point", "coordinates": [4.7943, 53.0615]}}, {"type": "Feature", "properties": {"name": "Hollands Kroon"}, "geometry": {"type": "Point", "coordinates": [4.8801, 52.7997]}}, {"type": "Feature", "properties": {"name": "Beverwijk"}, "geometry": {"type": "Point", "coordinates": [4.6503, 52.4714]}}, {"type": "Feature", "properties": {"name": "Heemskerk"}, "geometry": {"type": "Point", "coordinates": [4.6886, 52.5311]}}, {"type": "Feature", "properties": {"name": "Velsen"}, "geometry": {"type": "Point", "coordinates": [4.6333, 52.4667]}}, {"type": "Feature", "properties": {"name": "Drechterland"}, "geometry": {"type": "Point", "coordinates": [5.0347, 52.7022]}}, {"type": "Feature", "properties": {"name": "Enkhuizen"}, "geometry": {"type": "Point", "coordinates": [5.2697, 52.7056]}}, {"type": "Feature", "properties": {"name": "Hoorn"}, "geometry": {"type": "Point", "coordinates": [5.0917, 52.6389]}}, {"type": "Feature", "properties": {"name": "Koggenland"}, "geometry": {"type": "Point", "coordinates": [4.9528, 52.6411]}}, {"type": "Feature", "properties": {"name": "Medemblik"}, "geometry": {"type": "Point", "coordinates": [5.1153, 52.7397]}}, {"type": "Feature", "properties": {"name": "Opmeer"}, "geometry": {"type": "Point", "coordinates": [4.9875, 52.6889]}}, {"type": "Feature", "properties": {"name": "Stede Broec"}, "geometry": {"type": "Point", "coordinates": [5.0672, 52.6775]}}, {"type": "Feature", "properties": {"name": "Bloemendaal"}, "geometry": {"type": "Point", "coordinates": [4.6172, 52.3944]}}, {"type": "Feature", "properties": {"name": "Haarlem"}, "geometry": {"type": "Point", "coordinates": [4.6462, 52.3874]}}, {"type": "Feature", "properties": {"name": "Heemstede"}, "geometry": {"type": "Point", "coordinates": [4.5667, 52.3333]}}, {"type": "Feature", "properties": {"name": "Zandvoort"}, "geometry": {"type": "Point", "coordinates": [4.5292, 52.3689]}}, {"type": "Feature", "properties": {"name": "Edam-Volendam"}, "geometry": {"type": "Point", "coordinates": [5.0711, 52.4647]}}, {"type": "Feature", "properties": {"name": "Landsmeer"}, "geometry": {"type": "Point", "coordinates": [4.9167, 52.4333]}}, {"type": "Feature", "properties": {"name": "Oostzaan"}, "geometry": {"type": "Point", "coordinates": [4.8622, 52.4517]}}, {"type": "Feature", "properties": {"name": "Purmerend"}, "geometry": {"type": "Point", "coordinates": [4.9553, 52.5214]}}, {"type": "Feature", "properties": {"name": "Waterland"}, "geometry": {"type": "Point", "coordinates": [5.0342, 52.4825]}}, {"type": "Feature", "properties": {"name": "Wormerland"}, "geometry": {"type": "Point", "coordinates": [4.8197, 52.5044]}}, {"type": "Feature", "properties": {"name": "Zaanstad"}, "geometry": {"type": "Point", "coordinates": [4.8233, 52.4375]}}, {"type": "Feature", "properties": {"name": "Langedijk"}, "geometry": {"type": "Point", "coordinates": [4.9222, 52.6511]}}, {"type": "Feature", "properties": {"name": "Beemster"}, "geometry": {"type": "Point", "coordinates": [4.9283, 52.5097]}}, {"type": "Feature", "properties": {"name": "Heerhugowaard"}, "geometry": {"type": "Point", "coordinates": [4.8356, 52.6583]}}, {"type": "Feature", "properties": {"name": "Amsterdam"}, "geometry": {"type": "Point", "coordinates": [4.9041, 52.3676]}}]}